{
"type": "FeatureCollection",
"name": "parks",
"crs": { "type": "name", "properties": { "name": "urn:ogc:def:crs:OGC:1.3:CRS84" } },
"features": [
{ "type": "Feature", "properties": { "label": "הפארק הצפוני", "sub_heading": "ירוק בעיניים בפארק המדע", "popup_content": "הריאה הירוקה הצפונית של העיר בשטח של כ-100 דונם. הפארק יתחבר לחורשת הצופים ולמרחב איצטדיון העירוני החדש", "comments": "הפארק מסומן (בנקודה ולא בפוליגון) בערך איפה שOSM מסמן את חורשת הצופים, אז החיבור אמור להיות די קל." }, "geometry": { "type": "Point", "coordinates": [ 34.81381437, 31.91498694 ] } },
{ "type": "Feature", "properties": { "label": "פארק הדרים", "sub_heading": null, "popup_content": "פארק העתיד של רחובות. בוסתנים, אגם ופעילויות לצד מבנים היסטוריים, נוף לשדות החקלאיים ומסלולי הליכה וישיבה", "comments": "אין לי מושג מה המיקום המתוכנן של הפארק, הוא מסומן רק כנקודה איפשהו בצד הזה של העיר." }, "geometry": { "type": "Point", "coordinates": [ 34.83007638, 31.89969526 ] } },
{ "type": "Feature", "properties": { "label": "פארק בוסתן", "sub_heading": null, "popup_content": "בוסתן עצי פרי קהילתי-חברתי, הליכה ואופניים בשכונת מקוב", "comments": null }, "geometry": { "type": "Point", "coordinates": [ 34.82843794, 31.88163453 ] } },
{ "type": "Feature", "properties": { "label": "פארק אתגרי", "sub_heading": null, "popup_content": "אקסטרים, סקייט פארק, מתקני משחק אתגריים, מתחם נינג'ה, מדשאות ופינות ישיבה ומנוחה. חוויה משפחתית מלאת אדרנלין בויסגל.", "comments": "אין לי מושג למה הפאר סומן פה, אני די בטוח שהוא לא יהיה פה לאור העובדה שהשטח לא שייך לרחובות אלא למועצה אזורית ברנר" }, "geometry": { "type": "Point", "coordinates": [ 34.79785369, 31.88079497 ] } },
{ "type": "Feature", "properties": { "label": "פארק וייסגל החדש", "sub_heading": "אקסטרים, כדורגל ונופש", "popup_content": "כדי לקדם חיים בריאים ואיכותיים לתושביה, משקיעה עיריית רחובות משאבים רבים בהקמת פארק עירוני המשלב פעילויות ספורט אתגרי, פנאי ובילוי למבוגרים וילדים במתחם וייסגל המחודש", "comments": null }, "geometry": { "type": "Point", "coordinates": [ 34.79218506, 31.88565633 ] } },
{ "type": "Feature", "properties": { "label": "חי פארק תל שלף", "sub_heading": "פארק טבע עירוני ואגם", "popup_content": "פארק טבע עירוני שבליבו תל עתיק. הפארק ישלב את שימור המבנים ההיסטוריים הממוקמים על פסגתו של התל, לצד פעילויות פנאי ונופש, כמו נסיעה בשבילי אופניים, ריצה והליכה. הנאה צרופה מובטחת.", "comments": null }, "geometry": { "type": "Point", "coordinates": [ 34.77352189, 31.88941411 ] } }
]
}
